{
"type": "FeatureCollection",
"name": "infrastructure_all",
"crs": { "type": "name", "properties": { "name": "urn:ogc:def:crs:OGC:1.3:CRS84" } },
"features": [
{ "type": "Feature", "properties": { "name": "Long Beach Airport", "type": "Airport", "lat": 33.8175, "lon": -118.1516, "elevation_ft": 60, "elevation_m": 18.288 }, "geometry": { "type": "Point", "coordinates": [ -118.1516, 33.8175 ] } },
{ "type": "Feature", "properties": { "name": "Port of Long Beach", "type": "Port", "lat": 33.7544, "lon": -118.191, "elevation_ft": 10, "elevation_m": 3.048 }, "geometry": { "type": "Point", "coordinates": [ -118.191, 33.7544 ] } },
{ "type": "Feature", "properties": { "name": "Long Beach Memorial", "type": "Hospital", "lat": 33.7844, "lon": -118.1411, "elevation_ft": 40, "elevation_m": 12.192 }, "geometry": { "type": "Point", "coordinates": [ -118.1411, 33.7844 ] } },
{ "type": "Feature", "properties": { "name": "Aquarium of the Pacific", "type": "Attraction", "lat": 33.7625, "lon": -118.1951, "elevation_ft": 15, "elevation_m": 4.572 }, "geometry": { "type": "Point", "coordinates": [ -118.1951, 33.7625 ] } },
{ "type": "Feature", "properties": { "name": "Queen Mary", "type": "Historic Ship", "lat": 33.7526, "lon": -118.1897, "elevation_ft": 5, "elevation_m": 1.524 }, "geometry": { "type": "Point", "coordinates": [ -118.1897, 33.7526 ] } }
]
}
