{
  "current_services": [
    {
      "name": "Multi-Service Center",
      "type": "shelter",
      "lat": 33.7701,
      "lon": -118.1937,
      "address": "1301 W 12th St",
      "city": "Long Beach",
      "description": "Comprehensive services",
      "year": 2025
    },
    {
      "name": "Long Beach Rescue Mission",
      "type": "shelter",
      "lat": 33.7838,
      "lon": -118.1889,
      "address": "1335 Pacific Ave",
      "city": "Long Beach",
      "description": "Emergency shelter",
      "year": 2025
    },
    {
      "name": "PATH Long Beach",
      "type": "social_facility",
      "lat": 33.7794,
      "lon": -118.1683,
      "address": "1200 E Wardlow Rd",
      "city": "Long Beach",
      "description": "Housing support",
      "year": 2025
    },
    {
      "name": "Long Beach Community Table",
      "type": "food_bank",
      "lat": 33.7679,
      "lon": -118.1895,
      "address": "1528 W 7th St",
      "city": "Long Beach",
      "description": "Free meals",
      "year": 2025
    },
    {
      "name": "Rainbow Services Food Bank",
      "type": "food_bank",
      "lat": 33.7845,
      "lon": -118.1512,
      "address": "2291 Chestnut Ave",
      "city": "Long Beach",
      "description": "Food assistance",
      "year": 2025
    },
    {
      "name": "Union Rescue Mission",
      "type": "shelter",
      "lat": 34.0443,
      "lon": -118.2437,
      "address": "545 S San Pedro St",
      "city": "Los Angeles",
      "description": "Largest shelter",
      "year": 2025
    },
    {
      "name": "The Midnight Mission",
      "type": "shelter",
      "lat": 34.0422,
      "lon": -118.2419,
      "address": "601 S San Pedro St",
      "city": "Los Angeles",
      "description": "24/7 shelter",
      "year": 2025
    },
    {
      "name": "Los Angeles Mission",
      "type": "shelter",
      "lat": 34.0427,
      "lon": -118.2393,
      "address": "303 E 5th St",
      "city": "Los Angeles",
      "description": "Meals and shelter",
      "year": 2025
    },
    {
      "name": "PATH Skid Row",
      "type": "social_facility",
      "lat": 34.0419,
      "lon": -118.2467,
      "address": "340 S Main St",
      "city": "Los Angeles",
      "description": "Rapid rehousing",
      "year": 2025
    },
    {
      "name": "Weingart Center",
      "type": "social_facility",
      "lat": 34.0436,
      "lon": -118.2447,
      "address": "566 S San Pedro St",
      "city": "Los Angeles",
      "description": "Homeless services",
      "year": 2025
    },
    {
      "name": "LA Downtown Food Bank",
      "type": "food_bank",
      "lat": 34.0421,
      "lon": -118.2385,
      "address": "419 E 5th St",
      "city": "Los Angeles",
      "description": "Daily meals",
      "year": 2025
    },
    {
      "name": "LA Regional Food Bank",
      "type": "food_bank",
      "lat": 34.0219,
      "lon": -118.2205,
      "address": "1734 E 41st St",
      "city": "Los Angeles",
      "description": "Major food distribution",
      "year": 2025
    },
    {
      "name": "Hollywood Food Coalition",
      "type": "food_bank",
      "lat": 34.0995,
      "lon": -118.3267,
      "address": "1625 N Schrader Blvd",
      "city": "Los Angeles",
      "description": "Hot meals daily",
      "year": 2025
    },
    {
      "name": "LA Family Housing",
      "type": "social_facility",
      "lat": 34.1689,
      "lon": -118.3871,
      "address": "7843 Lankershim Blvd",
      "city": "Los Angeles",
      "description": "Family shelter",
      "year": 2025
    },
    {
      "name": "Union Station Homeless Services",
      "type": "shelter",
      "lat": 34.1478,
      "lon": -118.1445,
      "address": "412 S Raymond Ave",
      "city": "Pasadena",
      "description": "Family shelter",
      "year": 2025
    },
    {
      "name": "Pasadena Food Bank",
      "type": "food_bank",
      "lat": 34.152,
      "lon": -118.1382,
      "address": "350 S Lake Ave",
      "city": "Pasadena",
      "description": "Food pantry",
      "year": 2025
    },
    {
      "name": "OPCC Homeless Services",
      "type": "social_facility",
      "lat": 34.0195,
      "lon": -118.4912,
      "address": "1837 Lincoln Blvd",
      "city": "Santa Monica",
      "description": "Support services",
      "year": 2025
    },
    {
      "name": "Westside Food Bank",
      "type": "food_bank",
      "lat": 34.0182,
      "lon": -118.4759,
      "address": "1710 22nd St",
      "city": "Santa Monica",
      "description": "Food distribution",
      "year": 2025
    },
    {
      "name": "Watts Food Bank",
      "type": "food_bank",
      "lat": 33.9398,
      "lon": -118.2418,
      "address": "10950 S Central Ave",
      "city": "Los Angeles",
      "description": "Food bank",
      "year": 2025
    },
    {
      "name": "Compton Food Bank",
      "type": "food_bank",
      "lat": 33.8958,
      "lon": -118.2201,
      "address": "401 W Compton Blvd",
      "city": "Compton",
      "description": "Food assistance",
      "year": 2025
    }
  ],
  "historical_facilities": [
    {
      "name": "Westside Food Bank",
      "type": "food_bank",
      "lat": 34.0182,
      "lon": -118.4759,
      "address": "1710 22nd St",
      "city": "Santa Monica",
      "description": "Food distribution",
      "year": 2015
    },
    {
      "name": "Long Beach Rescue Mission",
      "type": "shelter",
      "lat": 33.7838,
      "lon": -118.1889,
      "address": "1335 Pacific Ave",
      "city": "Long Beach",
      "description": "Emergency shelter",
      "year": 2015
    },
    {
      "name": "Watts Food Bank",
      "type": "food_bank",
      "lat": 33.9398,
      "lon": -118.2418,
      "address": "10950 S Central Ave",
      "city": "Los Angeles",
      "description": "Food bank",
      "year": 2015
    },
    {
      "name": "OPCC Homeless Services",
      "type": "social_facility",
      "lat": 34.0195,
      "lon": -118.4912,
      "address": "1837 Lincoln Blvd",
      "city": "Santa Monica",
      "description": "Support services",
      "year": 2015
    },
    {
      "name": "Long Beach Community Table",
      "type": "food_bank",
      "lat": 33.7679,
      "lon": -118.1895,
      "address": "1528 W 7th St",
      "city": "Long Beach",
      "description": "Free meals",
      "year": 2015
    },
    {
      "name": "Rainbow Services Food Bank",
      "type": "food_bank",
      "lat": 33.7845,
      "lon": -118.1512,
      "address": "2291 Chestnut Ave",
      "city": "Long Beach",
      "description": "Food assistance",
      "year": 2015
    },
    {
      "name": "Pasadena Food Bank",
      "type": "food_bank",
      "lat": 34.152,
      "lon": -118.1382,
      "address": "350 S Lake Ave",
      "city": "Pasadena",
      "description": "Food pantry",
      "year": 2015
    },
    {
      "name": "Multi-Service Center",
      "type": "shelter",
      "lat": 33.7701,
      "lon": -118.1937,
      "address": "1301 W 12th St",
      "city": "Long Beach",
      "description": "Comprehensive services",
      "year": 2015
    },
    {
      "name": "Union Station Homeless Services",
      "type": "shelter",
      "lat": 34.1478,
      "lon": -118.1445,
      "address": "412 S Raymond Ave",
      "city": "Pasadena",
      "description": "Family shelter",
      "year": 2015
    },
    {
      "name": "Los Angeles Mission",
      "type": "shelter",
      "lat": 34.0427,
      "lon": -118.2393,
      "address": "303 E 5th St",
      "city": "Los Angeles",
      "description": "Meals and shelter",
      "year": 2015
    },
    {
      "name": "Union Rescue Mission",
      "type": "shelter",
      "lat": 34.0443,
      "lon": -118.2437,
      "address": "545 S San Pedro St",
      "city": "Los Angeles",
      "description": "Largest shelter",
      "year": 2015
    },
    {
      "name": "LA Regional Food Bank",
      "type": "food_bank",
      "lat": 34.0219,
      "lon": -118.2205,
      "address": "1734 E 41st St",
      "city": "Los Angeles",
      "description": "Major food distribution",
      "year": 2015
    },
    {
      "name": "Union Rescue Mission",
      "type": "shelter",
      "lat": 34.0443,
      "lon": -118.2437,
      "address": "545 S San Pedro St",
      "city": "Los Angeles",
      "description": "Largest shelter",
      "year": 2018
    },
    {
      "name": "Long Beach Community Table",
      "type": "food_bank",
      "lat": 33.7679,
      "lon": -118.1895,
      "address": "1528 W 7th St",
      "city": "Long Beach",
      "description": "Free meals",
      "year": 2018
    },
    {
      "name": "PATH Skid Row",
      "type": "social_facility",
      "lat": 34.0419,
      "lon": -118.2467,
      "address": "340 S Main St",
      "city": "Los Angeles",
      "description": "Rapid rehousing",
      "year": 2018
    },
    {
      "name": "Rainbow Services Food Bank",
      "type": "food_bank",
      "lat": 33.7845,
      "lon": -118.1512,
      "address": "2291 Chestnut Ave",
      "city": "Long Beach",
      "description": "Food assistance",
      "year": 2018
    },
    {
      "name": "LA Family Housing",
      "type": "social_facility",
      "lat": 34.1689,
      "lon": -118.3871,
      "address": "7843 Lankershim Blvd",
      "city": "Los Angeles",
      "description": "Family shelter",
      "year": 2018
    },
    {
      "name": "Multi-Service Center",
      "type": "shelter",
      "lat": 33.7701,
      "lon": -118.1937,
      "address": "1301 W 12th St",
      "city": "Long Beach",
      "description": "Comprehensive services",
      "year": 2018
    },
    {
      "name": "Long Beach Rescue Mission",
      "type": "shelter",
      "lat": 33.7838,
      "lon": -118.1889,
      "address": "1335 Pacific Ave",
      "city": "Long Beach",
      "description": "Emergency shelter",
      "year": 2018
    },
    {
      "name": "Watts Food Bank",
      "type": "food_bank",
      "lat": 33.9398,
      "lon": -118.2418,
      "address": "10950 S Central Ave",
      "city": "Los Angeles",
      "description": "Food bank",
      "year": 2018
    },
    {
      "name": "LA Downtown Food Bank",
      "type": "food_bank",
      "lat": 34.0421,
      "lon": -118.2385,
      "address": "419 E 5th St",
      "city": "Los Angeles",
      "description": "Daily meals",
      "year": 2018
    },
    {
      "name": "OPCC Homeless Services",
      "type": "social_facility",
      "lat": 34.0195,
      "lon": -118.4912,
      "address": "1837 Lincoln Blvd",
      "city": "Santa Monica",
      "description": "Support services",
      "year": 2018
    },
    {
      "name": "Union Station Homeless Services",
      "type": "shelter",
      "lat": 34.1478,
      "lon": -118.1445,
      "address": "412 S Raymond Ave",
      "city": "Pasadena",
      "description": "Family shelter",
      "year": 2018
    },
    {
      "name": "Hollywood Food Coalition",
      "type": "food_bank",
      "lat": 34.0995,
      "lon": -118.3267,
      "address": "1625 N Schrader Blvd",
      "city": "Los Angeles",
      "description": "Hot meals daily",
      "year": 2018
    },
    {
      "name": "LA Regional Food Bank",
      "type": "food_bank",
      "lat": 34.0219,
      "lon": -118.2205,
      "address": "1734 E 41st St",
      "city": "Los Angeles",
      "description": "Major food distribution",
      "year": 2018
    },
    {
      "name": "Los Angeles Mission",
      "type": "shelter",
      "lat": 34.0427,
      "lon": -118.2393,
      "address": "303 E 5th St",
      "city": "Los Angeles",
      "description": "Meals and shelter",
      "year": 2018
    },
    {
      "name": "Pasadena Food Bank",
      "type": "food_bank",
      "lat": 34.152,
      "lon": -118.1382,
      "address": "350 S Lake Ave",
      "city": "Pasadena",
      "description": "Food pantry",
      "year": 2018
    },
    {
      "name": "Westside Food Bank",
      "type": "food_bank",
      "lat": 34.0182,
      "lon": -118.4759,
      "address": "1710 22nd St",
      "city": "Santa Monica",
      "description": "Food distribution",
      "year": 2018
    },
    {
      "name": "The Midnight Mission",
      "type": "shelter",
      "lat": 34.0422,
      "lon": -118.2419,
      "address": "601 S San Pedro St",
      "city": "Los Angeles",
      "description": "24/7 shelter",
      "year": 2020
    },
    {
      "name": "Weingart Center",
      "type": "social_facility",
      "lat": 34.0436,
      "lon": -118.2447,
      "address": "566 S San Pedro St",
      "city": "Los Angeles",
      "description": "Homeless services",
      "year": 2020
    },
    {
      "name": "Hollywood Food Coalition",
      "type": "food_bank",
      "lat": 34.0995,
      "lon": -118.3267,
      "address": "1625 N Schrader Blvd",
      "city": "Los Angeles",
      "description": "Hot meals daily",
      "year": 2020
    },
    {
      "name": "Rainbow Services Food Bank",
      "type": "food_bank",
      "lat": 33.7845,
      "lon": -118.1512,
      "address": "2291 Chestnut Ave",
      "city": "Long Beach",
      "description": "Food assistance",
      "year": 2020
    },
    {
      "name": "Union Rescue Mission",
      "type": "shelter",
      "lat": 34.0443,
      "lon": -118.2437,
      "address": "545 S San Pedro St",
      "city": "Los Angeles",
      "description": "Largest shelter",
      "year": 2020
    },
    {
      "name": "Union Station Homeless Services",
      "type": "shelter",
      "lat": 34.1478,
      "lon": -118.1445,
      "address": "412 S Raymond Ave",
      "city": "Pasadena",
      "description": "Family shelter",
      "year": 2020
    },
    {
      "name": "Long Beach Rescue Mission",
      "type": "shelter",
      "lat": 33.7838,
      "lon": -118.1889,
      "address": "1335 Pacific Ave",
      "city": "Long Beach",
      "description": "Emergency shelter",
      "year": 2020
    },
    {
      "name": "PATH Long Beach",
      "type": "social_facility",
      "lat": 33.7794,
      "lon": -118.1683,
      "address": "1200 E Wardlow Rd",
      "city": "Long Beach",
      "description": "Housing support",
      "year": 2020
    },
    {
      "name": "Pasadena Food Bank",
      "type": "food_bank",
      "lat": 34.152,
      "lon": -118.1382,
      "address": "350 S Lake Ave",
      "city": "Pasadena",
      "description": "Food pantry",
      "year": 2020
    },
    {
      "name": "LA Downtown Food Bank",
      "type": "food_bank",
      "lat": 34.0421,
      "lon": -118.2385,
      "address": "419 E 5th St",
      "city": "Los Angeles",
      "description": "Daily meals",
      "year": 2020
    },
    {
      "name": "Compton Food Bank",
      "type": "food_bank",
      "lat": 33.8958,
      "lon": -118.2201,
      "address": "401 W Compton Blvd",
      "city": "Compton",
      "description": "Food assistance",
      "year": 2020
    },
    {
      "name": "Watts Food Bank",
      "type": "food_bank",
      "lat": 33.9398,
      "lon": -118.2418,
      "address": "10950 S Central Ave",
      "city": "Los Angeles",
      "description": "Food bank",
      "year": 2020
    },
    {
      "name": "Los Angeles Mission",
      "type": "shelter",
      "lat": 34.0427,
      "lon": -118.2393,
      "address": "303 E 5th St",
      "city": "Los Angeles",
      "description": "Meals and shelter",
      "year": 2020
    },
    {
      "name": "OPCC Homeless Services",
      "type": "social_facility",
      "lat": 34.0195,
      "lon": -118.4912,
      "address": "1837 Lincoln Blvd",
      "city": "Santa Monica",
      "description": "Support services",
      "year": 2020
    },
    {
      "name": "LA Family Housing",
      "type": "social_facility",
      "lat": 34.1689,
      "lon": -118.3871,
      "address": "7843 Lankershim Blvd",
      "city": "Los Angeles",
      "description": "Family shelter",
      "year": 2020
    },
    {
      "name": "LA Regional Food Bank",
      "type": "food_bank",
      "lat": 34.0219,
      "lon": -118.2205,
      "address": "1734 E 41st St",
      "city": "Los Angeles",
      "description": "Major food distribution",
      "year": 2020
    },
    {
      "name": "Westside Food Bank",
      "type": "food_bank",
      "lat": 34.0182,
      "lon": -118.4759,
      "address": "1710 22nd St",
      "city": "Santa Monica",
      "description": "Food distribution",
      "year": 2020
    },
    {
      "name": "Long Beach Community Table",
      "type": "food_bank",
      "lat": 33.7679,
      "lon": -118.1895,
      "address": "1528 W 7th St",
      "city": "Long Beach",
      "description": "Free meals",
      "year": 2020
    },
    {
      "name": "PATH Skid Row",
      "type": "social_facility",
      "lat": 34.0419,
      "lon": -118.2467,
      "address": "340 S Main St",
      "city": "Los Angeles",
      "description": "Rapid rehousing",
      "year": 2020
    },
    {
      "name": "Multi-Service Center",
      "type": "shelter",
      "lat": 33.7701,
      "lon": -118.1937,
      "address": "1301 W 12th St",
      "city": "Long Beach",
      "description": "Comprehensive services",
      "year": 2020
    },
    {
      "name": "LA Regional Food Bank",
      "type": "food_bank",
      "lat": 34.0219,
      "lon": -118.2205,
      "address": "1734 E 41st St",
      "city": "Los Angeles",
      "description": "Major food distribution",
      "year": 2023
    },
    {
      "name": "LA Downtown Food Bank",
      "type": "food_bank",
      "lat": 34.0421,
      "lon": -118.2385,
      "address": "419 E 5th St",
      "city": "Los Angeles",
      "description": "Daily meals",
      "year": 2023
    },
    {
      "name": "Pasadena Food Bank",
      "type": "food_bank",
      "lat": 34.152,
      "lon": -118.1382,
      "address": "350 S Lake Ave",
      "city": "Pasadena",
      "description": "Food pantry",
      "year": 2023
    },
    {
      "name": "Union Station Homeless Services",
      "type": "shelter",
      "lat": 34.1478,
      "lon": -118.1445,
      "address": "412 S Raymond Ave",
      "city": "Pasadena",
      "description": "Family shelter",
      "year": 2023
    },
    {
      "name": "LA Family Housing",
      "type": "social_facility",
      "lat": 34.1689,
      "lon": -118.3871,
      "address": "7843 Lankershim Blvd",
      "city": "Los Angeles",
      "description": "Family shelter",
      "year": 2023
    },
    {
      "name": "Rainbow Services Food Bank",
      "type": "food_bank",
      "lat": 33.7845,
      "lon": -118.1512,
      "address": "2291 Chestnut Ave",
      "city": "Long Beach",
      "description": "Food assistance",
      "year": 2023
    },
    {
      "name": "Weingart Center",
      "type": "social_facility",
      "lat": 34.0436,
      "lon": -118.2447,
      "address": "566 S San Pedro St",
      "city": "Los Angeles",
      "description": "Homeless services",
      "year": 2023
    },
    {
      "name": "Westside Food Bank",
      "type": "food_bank",
      "lat": 34.0182,
      "lon": -118.4759,
      "address": "1710 22nd St",
      "city": "Santa Monica",
      "description": "Food distribution",
      "year": 2023
    },
    {
      "name": "PATH Long Beach",
      "type": "social_facility",
      "lat": 33.7794,
      "lon": -118.1683,
      "address": "1200 E Wardlow Rd",
      "city": "Long Beach",
      "description": "Housing support",
      "year": 2023
    },
    {
      "name": "PATH Skid Row",
      "type": "social_facility",
      "lat": 34.0419,
      "lon": -118.2467,
      "address": "340 S Main St",
      "city": "Los Angeles",
      "description": "Rapid rehousing",
      "year": 2023
    },
    {
      "name": "Hollywood Food Coalition",
      "type": "food_bank",
      "lat": 34.0995,
      "lon": -118.3267,
      "address": "1625 N Schrader Blvd",
      "city": "Los Angeles",
      "description": "Hot meals daily",
      "year": 2023
    },
    {
      "name": "Los Angeles Mission",
      "type": "shelter",
      "lat": 34.0427,
      "lon": -118.2393,
      "address": "303 E 5th St",
      "city": "Los Angeles",
      "description": "Meals and shelter",
      "year": 2023
    },
    {
      "name": "OPCC Homeless Services",
      "type": "social_facility",
      "lat": 34.0195,
      "lon": -118.4912,
      "address": "1837 Lincoln Blvd",
      "city": "Santa Monica",
      "description": "Support services",
      "year": 2023
    },
    {
      "name": "Watts Food Bank",
      "type": "food_bank",
      "lat": 33.9398,
      "lon": -118.2418,
      "address": "10950 S Central Ave",
      "city": "Los Angeles",
      "description": "Food bank",
      "year": 2023
    },
    {
      "name": "Compton Food Bank",
      "type": "food_bank",
      "lat": 33.8958,
      "lon": -118.2201,
      "address": "401 W Compton Blvd",
      "city": "Compton",
      "description": "Food assistance",
      "year": 2023
    },
    {
      "name": "Multi-Service Center",
      "type": "shelter",
      "lat": 33.7701,
      "lon": -118.1937,
      "address": "1301 W 12th St",
      "city": "Long Beach",
      "description": "Comprehensive services",
      "year": 2023
    },
    {
      "name": "Union Rescue Mission",
      "type": "shelter",
      "lat": 34.0443,
      "lon": -118.2437,
      "address": "545 S San Pedro St",
      "city": "Los Angeles",
      "description": "Largest shelter",
      "year": 2023
    },
    {
      "name": "Long Beach Community Table",
      "type": "food_bank",
      "lat": 33.7679,
      "lon": -118.1895,
      "address": "1528 W 7th St",
      "city": "Long Beach",
      "description": "Free meals",
      "year": 2023
    },
    {
      "name": "Long Beach Rescue Mission",
      "type": "shelter",
      "lat": 33.7838,
      "lon": -118.1889,
      "address": "1335 Pacific Ave",
      "city": "Long Beach",
      "description": "Emergency shelter",
      "year": 2023
    },
    {
      "name": "The Midnight Mission",
      "type": "shelter",
      "lat": 34.0422,
      "lon": -118.2419,
      "address": "601 S San Pedro St",
      "city": "Los Angeles",
      "description": "24/7 shelter",
      "year": 2023
    },
    {
      "name": "Multi-Service Center",
      "type": "shelter",
      "lat": 33.7701,
      "lon": -118.1937,
      "address": "1301 W 12th St",
      "city": "Long Beach",
      "description": "Comprehensive services",
      "year": 2025
    },
    {
      "name": "Long Beach Rescue Mission",
      "type": "shelter",
      "lat": 33.7838,
      "lon": -118.1889,
      "address": "1335 Pacific Ave",
      "city": "Long Beach",
      "description": "Emergency shelter",
      "year": 2025
    },
    {
      "name": "PATH Long Beach",
      "type": "social_facility",
      "lat": 33.7794,
      "lon": -118.1683,
      "address": "1200 E Wardlow Rd",
      "city": "Long Beach",
      "description": "Housing support",
      "year": 2025
    },
    {
      "name": "Long Beach Community Table",
      "type": "food_bank",
      "lat": 33.7679,
      "lon": -118.1895,
      "address": "1528 W 7th St",
      "city": "Long Beach",
      "description": "Free meals",
      "year": 2025
    },
    {
      "name": "Rainbow Services Food Bank",
      "type": "food_bank",
      "lat": 33.7845,
      "lon": -118.1512,
      "address": "2291 Chestnut Ave",
      "city": "Long Beach",
      "description": "Food assistance",
      "year": 2025
    },
    {
      "name": "Union Rescue Mission",
      "type": "shelter",
      "lat": 34.0443,
      "lon": -118.2437,
      "address": "545 S San Pedro St",
      "city": "Los Angeles",
      "description": "Largest shelter",
      "year": 2025
    },
    {
      "name": "The Midnight Mission",
      "type": "shelter",
      "lat": 34.0422,
      "lon": -118.2419,
      "address": "601 S San Pedro St",
      "city": "Los Angeles",
      "description": "24/7 shelter",
      "year": 2025
    },
    {
      "name": "Los Angeles Mission",
      "type": "shelter",
      "lat": 34.0427,
      "lon": -118.2393,
      "address": "303 E 5th St",
      "city": "Los Angeles",
      "description": "Meals and shelter",
      "year": 2025
    },
    {
      "name": "PATH Skid Row",
      "type": "social_facility",
      "lat": 34.0419,
      "lon": -118.2467,
      "address": "340 S Main St",
      "city": "Los Angeles",
      "description": "Rapid rehousing",
      "year": 2025
    },
    {
      "name": "Weingart Center",
      "type": "social_facility",
      "lat": 34.0436,
      "lon": -118.2447,
      "address": "566 S San Pedro St",
      "city": "Los Angeles",
      "description": "Homeless services",
      "year": 2025
    },
    {
      "name": "LA Downtown Food Bank",
      "type": "food_bank",
      "lat": 34.0421,
      "lon": -118.2385,
      "address": "419 E 5th St",
      "city": "Los Angeles",
      "description": "Daily meals",
      "year": 2025
    },
    {
      "name": "LA Regional Food Bank",
      "type": "food_bank",
      "lat": 34.0219,
      "lon": -118.2205,
      "address": "1734 E 41st St",
      "city": "Los Angeles",
      "description": "Major food distribution",
      "year": 2025
    },
    {
      "name": "Hollywood Food Coalition",
      "type": "food_bank",
      "lat": 34.0995,
      "lon": -118.3267,
      "address": "1625 N Schrader Blvd",
      "city": "Los Angeles",
      "description": "Hot meals daily",
      "year": 2025
    },
    {
      "name": "LA Family Housing",
      "type": "social_facility",
      "lat": 34.1689,
      "lon": -118.3871,
      "address": "7843 Lankershim Blvd",
      "city": "Los Angeles",
      "description": "Family shelter",
      "year": 2025
    },
    {
      "name": "Union Station Homeless Services",
      "type": "shelter",
      "lat": 34.1478,
      "lon": -118.1445,
      "address": "412 S Raymond Ave",
      "city": "Pasadena",
      "description": "Family shelter",
      "year": 2025
    },
    {
      "name": "Pasadena Food Bank",
      "type": "food_bank",
      "lat": 34.152,
      "lon": -118.1382,
      "address": "350 S Lake Ave",
      "city": "Pasadena",
      "description": "Food pantry",
      "year": 2025
    },
    {
      "name": "OPCC Homeless Services",
      "type": "social_facility",
      "lat": 34.0195,
      "lon": -118.4912,
      "address": "1837 Lincoln Blvd",
      "city": "Santa Monica",
      "description": "Support services",
      "year": 2025
    },
    {
      "name": "Westside Food Bank",
      "type": "food_bank",
      "lat": 34.0182,
      "lon": -118.4759,
      "address": "1710 22nd St",
      "city": "Santa Monica",
      "description": "Food distribution",
      "year": 2025
    },
    {
      "name": "Watts Food Bank",
      "type": "food_bank",
      "lat": 33.9398,
      "lon": -118.2418,
      "address": "10950 S Central Ave",
      "city": "Los Angeles",
      "description": "Food bank",
      "year": 2025
    },
    {
      "name": "Compton Food Bank",
      "type": "food_bank",
      "lat": 33.8958,
      "lon": -118.2201,
      "address": "401 W Compton Blvd",
      "city": "Compton",
      "description": "Food assistance",
      "year": 2025
    }
  ],
  "coverage_analysis": [
    {
      "lat": 33.7171052631579,
      "lon": -118.65368421052631,
      "service_count": 0,
      "has_shelter": false,
      "area": "Other LA County"
    },
    {
      "lat": 33.7171052631579,
      "lon": -118.62105263157895,
      "service_count": 0,
      "has_shelter": false,
      "area": "Other LA County"
    },
    {
      "lat": 33.7171052631579,
      "lon": -118.58842105263159,
      "service_count": 0,
      "has_shelter": false,
      "area": "Other LA County"
    },
    {
      "lat": 33.7171052631579,
      "lon": -118.5557894736842,
      "service_count": 0,
      "has_shelter": false,
      "area": "Other LA County"
    },
    {
      "lat": 33.7171052631579,
      "lon": -118.52315789473684,
      "service_count": 0,
      "has_shelter": false,
      "area": "Other LA County"
    },
    {
      "lat": 33.7171052631579,
      "lon": -118.49052631578948,
      "service_count": 0,
      "has_shelter": false,
      "area": "Other LA County"
    },
    {
      "lat": 33.7171052631579,
      "lon": -118.4578947368421,
      "service_count": 0,
      "has_shelter": false,
      "area": "Other LA County"
    },
    {
      "lat": 33.7171052631579,
      "lon": -118.42526315789473,
      "service_count": 0,
      "has_shelter": false,
      "area": "Other LA County"
    },
    {
      "lat": 33.7171052631579,
      "lon": -118.39263157894737,
      "service_count": 0,
      "has_shelter": false,
      "area": "Other LA County"
    },
    {
      "lat": 33.7171052631579,
      "lon": -118.36,
      "service_count": 0,
      "has_shelter": false,
      "area": "Other LA County"
    },
    {
      "lat": 33.7171052631579,
      "lon": -118.32736842105263,
      "service_count": 0,
      "has_shelter": false,
      "area": "Other LA County"
    },
    {
      "lat": 33.7171052631579,
      "lon": -118.29473684210527,
      "service_count": 0,
      "has_shelter": false,
      "area": "Other LA County"
    },
    {
      "lat": 33.7171052631579,
      "lon": -118.26210526315789,
      "service_count": 0,
      "has_shelter": false,
      "area": "Other LA County"
    },
    {
      "lat": 33.7171052631579,
      "lon": -118.22947368421052,
      "service_count": 0,
      "has_shelter": false,
      "area": "Long Beach"
    },
    {
      "lat": 33.7171052631579,
      "lon": -118.19684210526316,
      "service_count": 0,
      "has_shelter": false,
      "area": "Long Beach"
    },
    {
      "lat": 33.7171052631579,
      "lon": -118.1642105263158,
      "service_count": 0,
      "has_shelter": false,
      "area": "Long Beach"
    },
    {
      "lat": 33.7171052631579,
      "lon": -118.13157894736841,
      "service_count": 0,
      "has_shelter": false,
      "area": "Long Beach"
    },
    {
      "lat": 33.7171052631579,
      "lon": -118.09894736842105,
      "service_count": 0,
      "has_shelter": false,
      "area": "Long Beach"
    },
    {
      "lat": 33.7171052631579,
      "lon": -118.06631578947369,
      "service_count": 0,
      "has_shelter": false,
      "area": "Long Beach"
    },
    {
      "lat": 33.751315789473686,
      "lon": -118.65368421052631,
      "service_count": 0,
      "has_shelter": false,
      "area": "Other LA County"
    },
    {
      "lat": 33.751315789473686,
      "lon": -118.62105263157895,
      "service_count": 0,
      "has_shelter": false,
      "area": "Other LA County"
    },
    {
      "lat": 33.751315789473686,
      "lon": -118.58842105263159,
      "service_count": 0,
      "has_shelter": false,
      "area": "Other LA County"
    },
    {
      "lat": 33.751315789473686,
      "lon": -118.5557894736842,
      "service_count": 0,
      "has_shelter": false,
      "area": "Other LA County"
    },
    {
      "lat": 33.751315789473686,
      "lon": -118.52315789473684,
      "service_count": 0,
      "has_shelter": false,
      "area": "Other LA County"
    },
    {
      "lat": 33.751315789473686,
      "lon": -118.49052631578948,
      "service_count": 0,
      "has_shelter": false,
      "area": "Other LA County"
    },
    {
      "lat": 33.751315789473686,
      "lon": -118.4578947368421,
      "service_count": 0,
      "has_shelter": false,
      "area": "Other LA County"
    },
    {
      "lat": 33.751315789473686,
      "lon": -118.42526315789473,
      "service_count": 0,
      "has_shelter": false,
      "area": "Other LA County"
    },
    {
      "lat": 33.751315789473686,
      "lon": -118.39263157894737,
      "service_count": 0,
      "has_shelter": false,
      "area": "Other LA County"
    },
    {
      "lat": 33.751315789473686,
      "lon": -118.36,
      "service_count": 0,
      "has_shelter": false,
      "area": "Other LA County"
    },
    {
      "lat": 33.751315789473686,
      "lon": -118.32736842105263,
      "service_count": 0,
      "has_shelter": false,
      "area": "Other LA County"
    },
    {
      "lat": 33.751315789473686,
      "lon": -118.29473684210527,
      "service_count": 3,
      "has_shelter": false,
      "area": "Other LA County"
    },
    {
      "lat": 33.751315789473686,
      "lon": -118.26210526315789,
      "service_count": 0,
      "has_shelter": false,
      "area": "Other LA County"
    },
    {
      "lat": 33.751315789473686,
      "lon": -118.22947368421052,
      "service_count": 0,
      "has_shelter": false,
      "area": "Long Beach"
    },
    {
      "lat": 33.751315789473686,
      "lon": -118.19684210526316,
      "service_count": 0,
      "has_shelter": false,
      "area": "Long Beach"
    },
    {
      "lat": 33.751315789473686,
      "lon": -118.1642105263158,
      "service_count": 1,
      "has_shelter": false,
      "area": "Long Beach"
    },
    {
      "lat": 33.751315789473686,
      "lon": -118.13157894736841,
      "service_count": 0,
      "has_shelter": false,
      "area": "Long Beach"
    },
    {
      "lat": 33.751315789473686,
      "lon": -118.09894736842105,
      "service_count": 0,
      "has_shelter": false,
      "area": "Long Beach"
    },
    {
      "lat": 33.751315789473686,
      "lon": -118.06631578947369,
      "service_count": 0,
      "has_shelter": false,
      "area": "Long Beach"
    },
    {
      "lat": 33.785526315789475,
      "lon": -118.65368421052631,
      "service_count": 0,
      "has_shelter": false,
      "area": "Other LA County"
    },
    {
      "lat": 33.785526315789475,
      "lon": -118.62105263157895,
      "service_count": 0,
      "has_shelter": false,
      "area": "Other LA County"
    },
    {
      "lat": 33.785526315789475,
      "lon": -118.58842105263159,
      "service_count": 0,
      "has_shelter": false,
      "area": "Other LA County"
    },
    {
      "lat": 33.785526315789475,
      "lon": -118.5557894736842,
      "service_count": 0,
      "has_shelter": false,
      "area": "Other LA County"
    },
    {
      "lat": 33.785526315789475,
      "lon": -118.52315789473684,
      "service_count": 0,
      "has_shelter": false,
      "area": "Other LA County"
    },
    {
      "lat": 33.785526315789475,
      "lon": -118.49052631578948,
      "service_count": 0,
      "has_shelter": false,
      "area": "Other LA County"
    },
    {
      "lat": 33.785526315789475,
      "lon": -118.4578947368421,
      "service_count": 0,
      "has_shelter": false,
      "area": "Other LA County"
    },
    {
      "lat": 33.785526315789475,
      "lon": -118.42526315789473,
      "service_count": 0,
      "has_shelter": false,
      "area": "Other LA County"
    },
    {
      "lat": 33.785526315789475,
      "lon": -118.39263157894737,
      "service_count": 0,
      "has_shelter": false,
      "area": "Other LA County"
    },
    {
      "lat": 33.785526315789475,
      "lon": -118.36,
      "service_count": 1,
      "has_shelter": false,
      "area": "Other LA County"
    },
    {
      "lat": 33.785526315789475,
      "lon": -118.32736842105263,
      "service_count": 0,
      "has_shelter": false,
      "area": "Other LA County"
    },
    {
      "lat": 33.785526315789475,
      "lon": -118.29473684210527,
      "service_count": 0,
      "has_shelter": false,
      "area": "Other LA County"
    },
    {
      "lat": 33.785526315789475,
      "lon": -118.26210526315789,
      "service_count": 4,
      "has_shelter": false,
      "area": "Other LA County"
    },
    {
      "lat": 33.785526315789475,
      "lon": -118.22947368421052,
      "service_count": 0,
      "has_shelter": false,
      "area": "Long Beach"
    },
    {
      "lat": 33.785526315789475,
      "lon": -118.19684210526316,
      "service_count": 5,
      "has_shelter": true,
      "area": "Long Beach"
    },
    {
      "lat": 33.785526315789475,
      "lon": -118.1642105263158,
      "service_count": 4,
      "has_shelter": false,
      "area": "Long Beach"
    },
    {
      "lat": 33.785526315789475,
      "lon": -118.13157894736841,
      "service_count": 2,
      "has_shelter": false,
      "area": "Long Beach"
    },
    {
      "lat": 33.785526315789475,
      "lon": -118.09894736842105,
      "service_count": 0,
      "has_shelter": false,
      "area": "Long Beach"
    },
    {
      "lat": 33.785526315789475,
      "lon": -118.06631578947369,
      "service_count": 0,
      "has_shelter": false,
      "area": "Long Beach"
    },
    {
      "lat": 33.819736842105264,
      "lon": -118.65368421052631,
      "service_count": 0,
      "has_shelter": false,
      "area": "Other LA County"
    },
    {
      "lat": 33.819736842105264,
      "lon": -118.62105263157895,
      "service_count": 0,
      "has_shelter": false,
      "area": "Other LA County"
    },
    {
      "lat": 33.819736842105264,
      "lon": -118.58842105263159,
      "service_count": 0,
      "has_shelter": false,
      "area": "Other LA County"
    },
    {
      "lat": 33.819736842105264,
      "lon": -118.5557894736842,
      "service_count": 0,
      "has_shelter": false,
      "area": "Other LA County"
    },
    {
      "lat": 33.819736842105264,
      "lon": -118.52315789473684,
      "service_count": 0,
      "has_shelter": false,
      "area": "Other LA County"
    },
    {
      "lat": 33.819736842105264,
      "lon": -118.49052631578948,
      "service_count": 0,
      "has_shelter": false,
      "area": "Other LA County"
    },
    {
      "lat": 33.819736842105264,
      "lon": -118.4578947368421,
      "service_count": 0,
      "has_shelter": false,
      "area": "Other LA County"
    },
    {
      "lat": 33.819736842105264,
      "lon": -118.42526315789473,
      "service_count": 0,
      "has_shelter": false,
      "area": "Other LA County"
    },
    {
      "lat": 33.819736842105264,
      "lon": -118.39263157894737,
      "service_count": 1,
      "has_shelter": false,
      "area": "Other LA County"
    },
    {
      "lat": 33.819736842105264,
      "lon": -118.36,
      "service_count": 2,
      "has_shelter": false,
      "area": "Other LA County"
    },
    {
      "lat": 33.819736842105264,
      "lon": -118.32736842105263,
      "service_count": 0,
      "has_shelter": false,
      "area": "Other LA County"
    },
    {
      "lat": 33.819736842105264,
      "lon": -118.29473684210527,
      "service_count": 0,
      "has_shelter": false,
      "area": "Other LA County"
    },
    {
      "lat": 33.819736842105264,
      "lon": -118.26210526315789,
      "service_count": 2,
      "has_shelter": false,
      "area": "Other LA County"
    },
    {
      "lat": 33.819736842105264,
      "lon": -118.22947368421052,
      "service_count": 0,
      "has_shelter": false,
      "area": "Long Beach"
    },
    {
      "lat": 33.819736842105264,
      "lon": -118.19684210526316,
      "service_count": 1,
      "has_shelter": false,
      "area": "Long Beach"
    },
    {
      "lat": 33.819736842105264,
      "lon": -118.1642105263158,
      "service_count": 0,
      "has_shelter": false,
      "area": "Long Beach"
    },
    {
      "lat": 33.819736842105264,
      "lon": -118.13157894736841,
      "service_count": 2,
      "has_shelter": false,
      "area": "Long Beach"
    },
    {
      "lat": 33.819736842105264,
      "lon": -118.09894736842105,
      "service_count": 2,
      "has_shelter": true,
      "area": "Long Beach"
    },
    {
      "lat": 33.819736842105264,
      "lon": -118.06631578947369,
      "service_count": 1,
      "has_shelter": false,
      "area": "Long Beach"
    },
    {
      "lat": 33.85394736842105,
      "lon": -118.65368421052631,
      "service_count": 0,
      "has_shelter": false,
      "area": "Other LA County"
    },
    {
      "lat": 33.85394736842105,
      "lon": -118.62105263157895,
      "service_count": 0,
      "has_shelter": false,
      "area": "Other LA County"
    },
    {
      "lat": 33.85394736842105,
      "lon": -118.58842105263159,
      "service_count": 0,
      "has_shelter": false,
      "area": "Other LA County"
    },
    {
      "lat": 33.85394736842105,
      "lon": -118.5557894736842,
      "service_count": 0,
      "has_shelter": false,
      "area": "Other LA County"
    },
    {
      "lat": 33.85394736842105,
      "lon": -118.52315789473684,
      "service_count": 0,
      "has_shelter": false,
      "area": "Other LA County"
    },
    {
      "lat": 33.85394736842105,
      "lon": -118.49052631578948,
      "service_count": 0,
      "has_shelter": false,
      "area": "Other LA County"
    },
    {
      "lat": 33.85394736842105,
      "lon": -118.4578947368421,
      "service_count": 0,
      "has_shelter": false,
      "area": "Other LA County"
    },
    {
      "lat": 33.85394736842105,
      "lon": -118.42526315789473,
      "service_count": 0,
      "has_shelter": false,
      "area": "Other LA County"
    },
    {
      "lat": 33.85394736842105,
      "lon": -118.39263157894737,
      "service_count": 1,
      "has_shelter": false,
      "area": "Other LA County"
    },
    {
      "lat": 33.85394736842105,
      "lon": -118.36,
      "service_count": 3,
      "has_shelter": false,
      "area": "Other LA County"
    },
    {
      "lat": 33.85394736842105,
      "lon": -118.32736842105263,
      "service_count": 0,
      "has_shelter": false,
      "area": "Other LA County"
    },
    {
      "lat": 33.85394736842105,
      "lon": -118.29473684210527,
      "service_count": 0,
      "has_shelter": false,
      "area": "Other LA County"
    },
    {
      "lat": 33.85394736842105,
      "lon": -118.26210526315789,
      "service_count": 0,
      "has_shelter": false,
      "area": "Other LA County"
    },
    {
      "lat": 33.85394736842105,
      "lon": -118.22947368421052,
      "service_count": 0,
      "has_shelter": false,
      "area": "Other LA County"
    },
    {
      "lat": 33.85394736842105,
      "lon": -118.19684210526316,
      "service_count": 1,
      "has_shelter": false,
      "area": "Other LA County"
    },
    {
      "lat": 33.85394736842105,
      "lon": -118.1642105263158,
      "service_count": 0,
      "has_shelter": false,
      "area": "Other LA County"
    },
    {
      "lat": 33.85394736842105,
      "lon": -118.13157894736841,
      "service_count": 2,
      "has_shelter": false,
      "area": "Other LA County"
    },
    {
      "lat": 33.85394736842105,
      "lon": -118.09894736842105,
      "service_count": 0,
      "has_shelter": false,
      "area": "Other LA County"
    },
    {
      "lat": 33.85394736842105,
      "lon": -118.06631578947369,
      "service_count": 0,
      "has_shelter": false,
      "area": "Other LA County"
    },
    {
      "lat": 33.88815789473684,
      "lon": -118.65368421052631,
      "service_count": 0,
      "has_shelter": false,
      "area": "Other LA County"
    },
    {
      "lat": 33.88815789473684,
      "lon": -118.62105263157895,
      "service_count": 0,
      "has_shelter": false,
      "area": "Other LA County"
    },
    {
      "lat": 33.88815789473684,
      "lon": -118.58842105263159,
      "service_count": 0,
      "has_shelter": false,
      "area": "Other LA County"
    },
    {
      "lat": 33.88815789473684,
      "lon": -118.5557894736842,
      "service_count": 0,
      "has_shelter": false,
      "area": "Other LA County"
    },
    {
      "lat": 33.88815789473684,
      "lon": -118.52315789473684,
      "service_count": 0,
      "has_shelter": false,
      "area": "Other LA County"
    },
    {
      "lat": 33.88815789473684,
      "lon": -118.49052631578948,
      "service_count": 0,
      "has_shelter": false,
      "area": "Other LA County"
    },
    {
      "lat": 33.88815789473684,
      "lon": -118.4578947368421,
      "service_count": 0,
      "has_shelter": false,
      "area": "Other LA County"
    },
    {
      "lat": 33.88815789473684,
      "lon": -118.42526315789473,
      "service_count": 0,
      "has_shelter": false,
      "area": "Other LA County"
    },
    {
      "lat": 33.88815789473684,
      "lon": -118.39263157894737,
      "service_count": 0,
      "has_shelter": false,
      "area": "Other LA County"
    },
    {
      "lat": 33.88815789473684,
      "lon": -118.36,
      "service_count": 0,
      "has_shelter": false,
      "area": "Other LA County"
    },
    {
      "lat": 33.88815789473684,
      "lon": -118.32736842105263,
      "service_count": 0,
      "has_shelter": false,
      "area": "Other LA County"
    },
    {
      "lat": 33.88815789473684,
      "lon": -118.29473684210527,
      "service_count": 0,
      "has_shelter": false,
      "area": "Other LA County"
    },
    {
      "lat": 33.88815789473684,
      "lon": -118.26210526315789,
      "service_count": 0,
      "has_shelter": false,
      "area": "Other LA County"
    },
    {
      "lat": 33.88815789473684,
      "lon": -118.22947368421052,
      "service_count": 1,
      "has_shelter": false,
      "area": "Other LA County"
    },
    {
      "lat": 33.88815789473684,
      "lon": -118.19684210526316,
      "service_count": 0,
      "has_shelter": false,
      "area": "Other LA County"
    },
    {
      "lat": 33.88815789473684,
      "lon": -118.1642105263158,
      "service_count": 1,
      "has_shelter": false,
      "area": "Other LA County"
    },
    {
      "lat": 33.88815789473684,
      "lon": -118.13157894736841,
      "service_count": 0,
      "has_shelter": false,
      "area": "Other LA County"
    },
    {
      "lat": 33.88815789473684,
      "lon": -118.09894736842105,
      "service_count": 0,
      "has_shelter": false,
      "area": "Other LA County"
    },
    {
      "lat": 33.88815789473684,
      "lon": -118.06631578947369,
      "service_count": 0,
      "has_shelter": false,
      "area": "Other LA County"
    },
    {
      "lat": 33.92236842105263,
      "lon": -118.65368421052631,
      "service_count": 0,
      "has_shelter": false,
      "area": "Other LA County"
    },
    {
      "lat": 33.92236842105263,
      "lon": -118.62105263157895,
      "service_count": 0,
      "has_shelter": false,
      "area": "Other LA County"
    },
    {
      "lat": 33.92236842105263,
      "lon": -118.58842105263159,
      "service_count": 0,
      "has_shelter": false,
      "area": "Other LA County"
    },
    {
      "lat": 33.92236842105263,
      "lon": -118.5557894736842,
      "service_count": 0,
      "has_shelter": false,
      "area": "Other LA County"
    },
    {
      "lat": 33.92236842105263,
      "lon": -118.52315789473684,
      "service_count": 0,
      "has_shelter": false,
      "area": "Other LA County"
    },
    {
      "lat": 33.92236842105263,
      "lon": -118.49052631578948,
      "service_count": 0,
      "has_shelter": false,
      "area": "Other LA County"
    },
    {
      "lat": 33.92236842105263,
      "lon": -118.4578947368421,
      "service_count": 0,
      "has_shelter": false,
      "area": "Other LA County"
    },
    {
      "lat": 33.92236842105263,
      "lon": -118.42526315789473,
      "service_count": 1,
      "has_shelter": true,
      "area": "Other LA County"
    },
    {
      "lat": 33.92236842105263,
      "lon": -118.39263157894737,
      "service_count": 0,
      "has_shelter": false,
      "area": "Other LA County"
    },
    {
      "lat": 33.92236842105263,
      "lon": -118.36,
      "service_count": 0,
      "has_shelter": false,
      "area": "Other LA County"
    },
    {
      "lat": 33.92236842105263,
      "lon": -118.32736842105263,
      "service_count": 0,
      "has_shelter": false,
      "area": "Other LA County"
    },
    {
      "lat": 33.92236842105263,
      "lon": -118.29473684210527,
      "service_count": 0,
      "has_shelter": false,
      "area": "Other LA County"
    },
    {
      "lat": 33.92236842105263,
      "lon": -118.26210526315789,
      "service_count": 1,
      "has_shelter": false,
      "area": "Other LA County"
    },
    {
      "lat": 33.92236842105263,
      "lon": -118.22947368421052,
      "service_count": 1,
      "has_shelter": false,
      "area": "Other LA County"
    },
    {
      "lat": 33.92236842105263,
      "lon": -118.19684210526316,
      "service_count": 0,
      "has_shelter": false,
      "area": "Other LA County"
    },
    {
      "lat": 33.92236842105263,
      "lon": -118.1642105263158,
      "service_count": 0,
      "has_shelter": false,
      "area": "Other LA County"
    },
    {
      "lat": 33.92236842105263,
      "lon": -118.13157894736841,
      "service_count": 0,
      "has_shelter": false,
      "area": "Other LA County"
    },
    {
      "lat": 33.92236842105263,
      "lon": -118.09894736842105,
      "service_count": 0,
      "has_shelter": false,
      "area": "Other LA County"
    },
    {
      "lat": 33.92236842105263,
      "lon": -118.06631578947369,
      "service_count": 0,
      "has_shelter": false,
      "area": "Other LA County"
    },
    {
      "lat": 33.95657894736842,
      "lon": -118.65368421052631,
      "service_count": 0,
      "has_shelter": false,
      "area": "Other LA County"
    },
    {
      "lat": 33.95657894736842,
      "lon": -118.62105263157895,
      "service_count": 0,
      "has_shelter": false,
      "area": "Other LA County"
    },
    {
      "lat": 33.95657894736842,
      "lon": -118.58842105263159,
      "service_count": 0,
      "has_shelter": false,
      "area": "Other LA County"
    },
    {
      "lat": 33.95657894736842,
      "lon": -118.5557894736842,
      "service_count": 0,
      "has_shelter": false,
      "area": "Other LA County"
    },
    {
      "lat": 33.95657894736842,
      "lon": -118.52315789473684,
      "service_count": 0,
      "has_shelter": false,
      "area": "Other LA County"
    },
    {
      "lat": 33.95657894736842,
      "lon": -118.49052631578948,
      "service_count": 0,
      "has_shelter": false,
      "area": "Other LA County"
    },
    {
      "lat": 33.95657894736842,
      "lon": -118.4578947368421,
      "service_count": 0,
      "has_shelter": false,
      "area": "Other LA County"
    },
    {
      "lat": 33.95657894736842,
      "lon": -118.42526315789473,
      "service_count": 1,
      "has_shelter": false,
      "area": "Other LA County"
    },
    {
      "lat": 33.95657894736842,
      "lon": -118.39263157894737,
      "service_count": 0,
      "has_shelter": false,
      "area": "Other LA County"
    },
    {
      "lat": 33.95657894736842,
      "lon": -118.36,
      "service_count": 1,
      "has_shelter": false,
      "area": "Other LA County"
    },
    {
      "lat": 33.95657894736842,
      "lon": -118.32736842105263,
      "service_count": 0,
      "has_shelter": false,
      "area": "Other LA County"
    },
    {
      "lat": 33.95657894736842,
      "lon": -118.29473684210527,
      "service_count": 3,
      "has_shelter": false,
      "area": "Other LA County"
    },
    {
      "lat": 33.95657894736842,
      "lon": -118.26210526315789,
      "service_count": 8,
      "has_shelter": false,
      "area": "Other LA County"
    },
    {
      "lat": 33.95657894736842,
      "lon": -118.22947368421052,
      "service_count": 2,
      "has_shelter": false,
      "area": "Other LA County"
    },
    {
      "lat": 33.95657894736842,
      "lon": -118.19684210526316,
      "service_count": 0,
      "has_shelter": false,
      "area": "Other LA County"
    },
    {
      "lat": 33.95657894736842,
      "lon": -118.1642105263158,
      "service_count": 0,
      "has_shelter": false,
      "area": "Other LA County"
    },
    {
      "lat": 33.95657894736842,
      "lon": -118.13157894736841,
      "service_count": 2,
      "has_shelter": false,
      "area": "Other LA County"
    },
    {
      "lat": 33.95657894736842,
      "lon": -118.09894736842105,
      "service_count": 0,
      "has_shelter": false,
      "area": "Other LA County"
    },
    {
      "lat": 33.95657894736842,
      "lon": -118.06631578947369,
      "service_count": 0,
      "has_shelter": false,
      "area": "Other LA County"
    },
    {
      "lat": 33.99078947368421,
      "lon": -118.65368421052631,
      "service_count": 0,
      "has_shelter": false,
      "area": "Other LA County"
    },
    {
      "lat": 33.99078947368421,
      "lon": -118.62105263157895,
      "service_count": 0,
      "has_shelter": false,
      "area": "Other LA County"
    },
    {
      "lat": 33.99078947368421,
      "lon": -118.58842105263159,
      "service_count": 0,
      "has_shelter": false,
      "area": "Other LA County"
    },
    {
      "lat": 33.99078947368421,
      "lon": -118.5557894736842,
      "service_count": 0,
      "has_shelter": false,
      "area": "Other LA County"
    },
    {
      "lat": 33.99078947368421,
      "lon": -118.52315789473684,
      "service_count": 0,
      "has_shelter": false,
      "area": "Other LA County"
    },
    {
      "lat": 33.99078947368421,
      "lon": -118.49052631578948,
      "service_count": 0,
      "has_shelter": false,
      "area": "Other LA County"
    },
    {
      "lat": 33.99078947368421,
      "lon": -118.4578947368421,
      "service_count": 0,
      "has_shelter": false,
      "area": "Other LA County"
    },
    {
      "lat": 33.99078947368421,
      "lon": -118.42526315789473,
      "service_count": 1,
      "has_shelter": false,
      "area": "Other LA County"
    },
    {
      "lat": 33.99078947368421,
      "lon": -118.39263157894737,
      "service_count": 1,
      "has_shelter": false,
      "area": "Other LA County"
    },
    {
      "lat": 33.99078947368421,
      "lon": -118.36,
      "service_count": 0,
      "has_shelter": false,
      "area": "Other LA County"
    },
    {
      "lat": 33.99078947368421,
      "lon": -118.32736842105263,
      "service_count": 4,
      "has_shelter": false,
      "area": "Other LA County"
    },
    {
      "lat": 33.99078947368421,
      "lon": -118.29473684210527,
      "service_count": 0,
      "has_shelter": false,
      "area": "Other LA County"
    },
    {
      "lat": 33.99078947368421,
      "lon": -118.26210526315789,
      "service_count": 11,
      "has_shelter": false,
      "area": "Other LA County"
    },
    {
      "lat": 33.99078947368421,
      "lon": -118.22947368421052,
      "service_count": 0,
      "has_shelter": false,
      "area": "Other LA County"
    },
    {
      "lat": 33.99078947368421,
      "lon": -118.19684210526316,
      "service_count": 0,
      "has_shelter": false,
      "area": "Other LA County"
    },
    {
      "lat": 33.99078947368421,
      "lon": -118.1642105263158,
      "service_count": 0,
      "has_shelter": false,
      "area": "Other LA County"
    },
    {
      "lat": 33.99078947368421,
      "lon": -118.13157894736841,
      "service_count": 0,
      "has_shelter": false,
      "area": "Other LA County"
    },
    {
      "lat": 33.99078947368421,
      "lon": -118.09894736842105,
      "service_count": 0,
      "has_shelter": false,
      "area": "Other LA County"
    },
    {
      "lat": 33.99078947368421,
      "lon": -118.06631578947369,
      "service_count": 0,
      "has_shelter": false,
      "area": "Other LA County"
    },
    {
      "lat": 34.025000000000006,
      "lon": -118.65368421052631,
      "service_count": 0,
      "has_shelter": false,
      "area": "Other LA County"
    },
    {
      "lat": 34.025000000000006,
      "lon": -118.62105263157895,
      "service_count": 0,
      "has_shelter": false,
      "area": "Other LA County"
    },
    {
      "lat": 34.025000000000006,
      "lon": -118.58842105263159,
      "service_count": 0,
      "has_shelter": false,
      "area": "Other LA County"
    },
    {
      "lat": 34.025000000000006,
      "lon": -118.5557894736842,
      "service_count": 0,
      "has_shelter": false,
      "area": "Other LA County"
    },
    {
      "lat": 34.025000000000006,
      "lon": -118.52315789473684,
      "service_count": 0,
      "has_shelter": false,
      "area": "Other LA County"
    },
    {
      "lat": 34.025000000000006,
      "lon": -118.49052631578948,
      "service_count": 5,
      "has_shelter": false,
      "area": "Other LA County"
    },
    {
      "lat": 34.025000000000006,
      "lon": -118.4578947368421,
      "service_count": 6,
      "has_shelter": false,
      "area": "Other LA County"
    },
    {
      "lat": 34.025000000000006,
      "lon": -118.42526315789473,
      "service_count": 5,
      "has_shelter": false,
      "area": "Other LA County"
    },
    {
      "lat": 34.025000000000006,
      "lon": -118.39263157894737,
      "service_count": 3,
      "has_shelter": false,
      "area": "Other LA County"
    },
    {
      "lat": 34.025000000000006,
      "lon": -118.36,
      "service_count": 2,
      "has_shelter": false,
      "area": "Other LA County"
    },
    {
      "lat": 34.025000000000006,
      "lon": -118.32736842105263,
      "service_count": 3,
      "has_shelter": false,
      "area": "Other LA County"
    },
    {
      "lat": 34.025000000000006,
      "lon": -118.29473684210527,
      "service_count": 5,
      "has_shelter": false,
      "area": "Downtown LA"
    },
    {
      "lat": 34.025000000000006,
      "lon": -118.26210526315789,
      "service_count": 8,
      "has_shelter": false,
      "area": "Downtown LA"
    },
    {
      "lat": 34.025000000000006,
      "lon": -118.22947368421052,
      "service_count": 1,
      "has_shelter": false,
      "area": "Downtown LA"
    },
    {
      "lat": 34.025000000000006,
      "lon": -118.19684210526316,
      "service_count": 5,
      "has_shelter": false,
      "area": "Downtown LA"
    },
    {
      "lat": 34.025000000000006,
      "lon": -118.1642105263158,
      "service_count": 5,
      "has_shelter": false,
      "area": "Downtown LA"
    },
    {
      "lat": 34.025000000000006,
      "lon": -118.13157894736841,
      "service_count": 2,
      "has_shelter": false,
      "area": "Other LA County"
    },
    {
      "lat": 34.025000000000006,
      "lon": -118.09894736842105,
      "service_count": 1,
      "has_shelter": false,
      "area": "Other LA County"
    },
    {
      "lat": 34.025000000000006,
      "lon": -118.06631578947369,
      "service_count": 0,
      "has_shelter": false,
      "area": "Other LA County"
    },
    {
      "lat": 34.059210526315795,
      "lon": -118.65368421052631,
      "service_count": 0,
      "has_shelter": false,
      "area": "Other LA County"
    },
    {
      "lat": 34.059210526315795,
      "lon": -118.62105263157895,
      "service_count": 0,
      "has_shelter": false,
      "area": "Other LA County"
    },
    {
      "lat": 34.059210526315795,
      "lon": -118.58842105263159,
      "service_count": 0,
      "has_shelter": false,
      "area": "Other LA County"
    },
    {
      "lat": 34.059210526315795,
      "lon": -118.5557894736842,
      "service_count": 0,
      "has_shelter": false,
      "area": "Other LA County"
    },
    {
      "lat": 34.059210526315795,
      "lon": -118.52315789473684,
      "service_count": 0,
      "has_shelter": false,
      "area": "Other LA County"
    },
    {
      "lat": 34.059210526315795,
      "lon": -118.49052631578948,
      "service_count": 0,
      "has_shelter": false,
      "area": "Other LA County"
    },
    {
      "lat": 34.059210526315795,
      "lon": -118.4578947368421,
      "service_count": 2,
      "has_shelter": false,
      "area": "Other LA County"
    },
    {
      "lat": 34.059210526315795,
      "lon": -118.42526315789473,
      "service_count": 0,
      "has_shelter": false,
      "area": "Other LA County"
    },
    {
      "lat": 34.059210526315795,
      "lon": -118.39263157894737,
      "service_count": 3,
      "has_shelter": false,
      "area": "Other LA County"
    },
    {
      "lat": 34.059210526315795,
      "lon": -118.36,
      "service_count": 1,
      "has_shelter": false,
      "area": "Other LA County"
    },
    {
      "lat": 34.059210526315795,
      "lon": -118.32736842105263,
      "service_count": 5,
      "has_shelter": false,
      "area": "Other LA County"
    },
    {
      "lat": 34.059210526315795,
      "lon": -118.29473684210527,
      "service_count": 11,
      "has_shelter": false,
      "area": "Downtown LA"
    },
    {
      "lat": 34.059210526315795,
      "lon": -118.26210526315789,
      "service_count": 8,
      "has_shelter": false,
      "area": "Downtown LA"
    },
    {
      "lat": 34.059210526315795,
      "lon": -118.22947368421052,
      "service_count": 14,
      "has_shelter": true,
      "area": "Downtown LA"
    },
    {
      "lat": 34.059210526315795,
      "lon": -118.19684210526316,
      "service_count": 4,
      "has_shelter": false,
      "area": "Downtown LA"
    },
    {
      "lat": 34.059210526315795,
      "lon": -118.1642105263158,
      "service_count": 1,
      "has_shelter": false,
      "area": "Downtown LA"
    },
    {
      "lat": 34.059210526315795,
      "lon": -118.13157894736841,
      "service_count": 0,
      "has_shelter": false,
      "area": "Other LA County"
    },
    {
      "lat": 34.059210526315795,
      "lon": -118.09894736842105,
      "service_count": 1,
      "has_shelter": false,
      "area": "Other LA County"
    },
    {
      "lat": 34.059210526315795,
      "lon": -118.06631578947369,
      "service_count": 0,
      "has_shelter": false,
      "area": "Other LA County"
    },
    {
      "lat": 34.093421052631584,
      "lon": -118.65368421052631,
      "service_count": 0,
      "has_shelter": false,
      "area": "Other LA County"
    },
    {
      "lat": 34.093421052631584,
      "lon": -118.62105263157895,
      "service_count": 0,
      "has_shelter": false,
      "area": "Other LA County"
    },
    {
      "lat": 34.093421052631584,
      "lon": -118.58842105263159,
      "service_count": 0,
      "has_shelter": false,
      "area": "Other LA County"
    },
    {
      "lat": 34.093421052631584,
      "lon": -118.5557894736842,
      "service_count": 0,
      "has_shelter": false,
      "area": "Other LA County"
    },
    {
      "lat": 34.093421052631584,
      "lon": -118.52315789473684,
      "service_count": 0,
      "has_shelter": false,
      "area": "Other LA County"
    },
    {
      "lat": 34.093421052631584,
      "lon": -118.49052631578948,
      "service_count": 0,
      "has_shelter": false,
      "area": "Other LA County"
    },
    {
      "lat": 34.093421052631584,
      "lon": -118.4578947368421,
      "service_count": 1,
      "has_shelter": false,
      "area": "Other LA County"
    },
    {
      "lat": 34.093421052631584,
      "lon": -118.42526315789473,
      "service_count": 0,
      "has_shelter": false,
      "area": "Other LA County"
    },
    {
      "lat": 34.093421052631584,
      "lon": -118.39263157894737,
      "service_count": 0,
      "has_shelter": false,
      "area": "Other LA County"
    },
    {
      "lat": 34.093421052631584,
      "lon": -118.36,
      "service_count": 5,
      "has_shelter": true,
      "area": "Other LA County"
    },
    {
      "lat": 34.093421052631584,
      "lon": -118.32736842105263,
      "service_count": 0,
      "has_shelter": false,
      "area": "Other LA County"
    },
    {
      "lat": 34.093421052631584,
      "lon": -118.29473684210527,
      "service_count": 4,
      "has_shelter": false,
      "area": "Downtown LA"
    },
    {
      "lat": 34.093421052631584,
      "lon": -118.26210526315789,
      "service_count": 0,
      "has_shelter": false,
      "area": "Downtown LA"
    },
    {
      "lat": 34.093421052631584,
      "lon": -118.22947368421052,
      "service_count": 1,
      "has_shelter": false,
      "area": "Downtown LA"
    },
    {
      "lat": 34.093421052631584,
      "lon": -118.19684210526316,
      "service_count": 6,
      "has_shelter": false,
      "area": "Downtown LA"
    },
    {
      "lat": 34.093421052631584,
      "lon": -118.1642105263158,
      "service_count": 3,
      "has_shelter": false,
      "area": "Downtown LA"
    },
    {
      "lat": 34.093421052631584,
      "lon": -118.13157894736841,
      "service_count": 0,
      "has_shelter": false,
      "area": "Other LA County"
    },
    {
      "lat": 34.093421052631584,
      "lon": -118.09894736842105,
      "service_count": 1,
      "has_shelter": false,
      "area": "Other LA County"
    },
    {
      "lat": 34.093421052631584,
      "lon": -118.06631578947369,
      "service_count": 0,
      "has_shelter": false,
      "area": "Other LA County"
    },
    {
      "lat": 34.12763157894737,
      "lon": -118.65368421052631,
      "service_count": 0,
      "has_shelter": false,
      "area": "Other LA County"
    },
    {
      "lat": 34.12763157894737,
      "lon": -118.62105263157895,
      "service_count": 0,
      "has_shelter": false,
      "area": "Other LA County"
    },
    {
      "lat": 34.12763157894737,
      "lon": -118.58842105263159,
      "service_count": 0,
      "has_shelter": false,
      "area": "Other LA County"
    },
    {
      "lat": 34.12763157894737,
      "lon": -118.5557894736842,
      "service_count": 0,
      "has_shelter": false,
      "area": "Other LA County"
    },
    {
      "lat": 34.12763157894737,
      "lon": -118.52315789473684,
      "service_count": 0,
      "has_shelter": false,
      "area": "Other LA County"
    },
    {
      "lat": 34.12763157894737,
      "lon": -118.49052631578948,
      "service_count": 0,
      "has_shelter": false,
      "area": "Other LA County"
    },
    {
      "lat": 34.12763157894737,
      "lon": -118.4578947368421,
      "service_count": 0,
      "has_shelter": false,
      "area": "Other LA County"
    },
    {
      "lat": 34.12763157894737,
      "lon": -118.42526315789473,
      "service_count": 0,
      "has_shelter": false,
      "area": "Other LA County"
    },
    {
      "lat": 34.12763157894737,
      "lon": -118.39263157894737,
      "service_count": 0,
      "has_shelter": false,
      "area": "Other LA County"
    },
    {
      "lat": 34.12763157894737,
      "lon": -118.36,
      "service_count": 2,
      "has_shelter": true,
      "area": "Other LA County"
    },
    {
      "lat": 34.12763157894737,
      "lon": -118.32736842105263,
      "service_count": 0,
      "has_shelter": false,
      "area": "Other LA County"
    },
    {
      "lat": 34.12763157894737,
      "lon": -118.29473684210527,
      "service_count": 0,
      "has_shelter": false,
      "area": "Downtown LA"
    },
    {
      "lat": 34.12763157894737,
      "lon": -118.26210526315789,
      "service_count": 3,
      "has_shelter": false,
      "area": "Downtown LA"
    },
    {
      "lat": 34.12763157894737,
      "lon": -118.22947368421052,
      "service_count": 2,
      "has_shelter": false,
      "area": "Downtown LA"
    },
    {
      "lat": 34.12763157894737,
      "lon": -118.19684210526316,
      "service_count": 1,
      "has_shelter": false,
      "area": "Downtown LA"
    },
    {
      "lat": 34.12763157894737,
      "lon": -118.1642105263158,
      "service_count": 0,
      "has_shelter": false,
      "area": "Downtown LA"
    },
    {
      "lat": 34.12763157894737,
      "lon": -118.13157894736841,
      "service_count": 0,
      "has_shelter": false,
      "area": "Pasadena"
    },
    {
      "lat": 34.12763157894737,
      "lon": -118.09894736842105,
      "service_count": 0,
      "has_shelter": false,
      "area": "Other LA County"
    },
    {
      "lat": 34.12763157894737,
      "lon": -118.06631578947369,
      "service_count": 1,
      "has_shelter": false,
      "area": "Other LA County"
    },
    {
      "lat": 34.16184210526316,
      "lon": -118.65368421052631,
      "service_count": 0,
      "has_shelter": false,
      "area": "Other LA County"
    },
    {
      "lat": 34.16184210526316,
      "lon": -118.62105263157895,
      "service_count": 2,
      "has_shelter": true,
      "area": "Other LA County"
    },
    {
      "lat": 34.16184210526316,
      "lon": -118.58842105263159,
      "service_count": 1,
      "has_shelter": false,
      "area": "Other LA County"
    },
    {
      "lat": 34.16184210526316,
      "lon": -118.5557894736842,
      "service_count": 0,
      "has_shelter": false,
      "area": "Other LA County"
    },
    {
      "lat": 34.16184210526316,
      "lon": -118.52315789473684,
      "service_count": 2,
      "has_shelter": false,
      "area": "Other LA County"
    },
    {
      "lat": 34.16184210526316,
      "lon": -118.49052631578948,
      "service_count": 0,
      "has_shelter": false,
      "area": "Other LA County"
    },
    {
      "lat": 34.16184210526316,
      "lon": -118.4578947368421,
      "service_count": 0,
      "has_shelter": false,
      "area": "Other LA County"
    },
    {
      "lat": 34.16184210526316,
      "lon": -118.42526315789473,
      "service_count": 0,
      "has_shelter": false,
      "area": "Other LA County"
    },
    {
      "lat": 34.16184210526316,
      "lon": -118.39263157894737,
      "service_count": 2,
      "has_shelter": false,
      "area": "Other LA County"
    },
    {
      "lat": 34.16184210526316,
      "lon": -118.36,
      "service_count": 1,
      "has_shelter": false,
      "area": "Other LA County"
    },
    {
      "lat": 34.16184210526316,
      "lon": -118.32736842105263,
      "service_count": 0,
      "has_shelter": false,
      "area": "Other LA County"
    },
    {
      "lat": 34.16184210526316,
      "lon": -118.29473684210527,
      "service_count": 1,
      "has_shelter": false,
      "area": "Other LA County"
    },
    {
      "lat": 34.16184210526316,
      "lon": -118.26210526315789,
      "service_count": 1,
      "has_shelter": false,
      "area": "Other LA County"
    },
    {
      "lat": 34.16184210526316,
      "lon": -118.22947368421052,
      "service_count": 3,
      "has_shelter": false,
      "area": "Other LA County"
    },
    {
      "lat": 34.16184210526316,
      "lon": -118.19684210526316,
      "service_count": 0,
      "has_shelter": false,
      "area": "Pasadena"
    },
    {
      "lat": 34.16184210526316,
      "lon": -118.1642105263158,
      "service_count": 2,
      "has_shelter": false,
      "area": "Pasadena"
    },
    {
      "lat": 34.16184210526316,
      "lon": -118.13157894736841,
      "service_count": 2,
      "has_shelter": true,
      "area": "Pasadena"
    },
    {
      "lat": 34.16184210526316,
      "lon": -118.09894736842105,
      "service_count": 1,
      "has_shelter": false,
      "area": "Other LA County"
    },
    {
      "lat": 34.16184210526316,
      "lon": -118.06631578947369,
      "service_count": 0,
      "has_shelter": false,
      "area": "Other LA County"
    },
    {
      "lat": 34.19605263157895,
      "lon": -118.65368421052631,
      "service_count": 0,
      "has_shelter": false,
      "area": "Other LA County"
    },
    {
      "lat": 34.19605263157895,
      "lon": -118.62105263157895,
      "service_count": 0,
      "has_shelter": false,
      "area": "Other LA County"
    },
    {
      "lat": 34.19605263157895,
      "lon": -118.58842105263159,
      "service_count": 1,
      "has_shelter": true,
      "area": "Other LA County"
    },
    {
      "lat": 34.19605263157895,
      "lon": -118.5557894736842,
      "service_count": 1,
      "has_shelter": false,
      "area": "Other LA County"
    },
    {
      "lat": 34.19605263157895,
      "lon": -118.52315789473684,
      "service_count": 2,
      "has_shelter": false,
      "area": "Other LA County"
    },
    {
      "lat": 34.19605263157895,
      "lon": -118.49052631578948,
      "service_count": 0,
      "has_shelter": false,
      "area": "Other LA County"
    },
    {
      "lat": 34.19605263157895,
      "lon": -118.4578947368421,
      "service_count": 1,
      "has_shelter": false,
      "area": "Other LA County"
    },
    {
      "lat": 34.19605263157895,
      "lon": -118.42526315789473,
      "service_count": 1,
      "has_shelter": false,
      "area": "Other LA County"
    },
    {
      "lat": 34.19605263157895,
      "lon": -118.39263157894737,
      "service_count": 2,
      "has_shelter": false,
      "area": "Other LA County"
    },
    {
      "lat": 34.19605263157895,
      "lon": -118.36,
      "service_count": 0,
      "has_shelter": false,
      "area": "Other LA County"
    },
    {
      "lat": 34.19605263157895,
      "lon": -118.32736842105263,
      "service_count": 2,
      "has_shelter": false,
      "area": "Other LA County"
    },
    {
      "lat": 34.19605263157895,
      "lon": -118.29473684210527,
      "service_count": 1,
      "has_shelter": false,
      "area": "Other LA County"
    },
    {
      "lat": 34.19605263157895,
      "lon": -118.26210526315789,
      "service_count": 0,
      "has_shelter": false,
      "area": "Other LA County"
    },
    {
      "lat": 34.19605263157895,
      "lon": -118.22947368421052,
      "service_count": 0,
      "has_shelter": false,
      "area": "Other LA County"
    },
    {
      "lat": 34.19605263157895,
      "lon": -118.19684210526316,
      "service_count": 0,
      "has_shelter": false,
      "area": "Pasadena"
    },
    {
      "lat": 34.19605263157895,
      "lon": -118.1642105263158,
      "service_count": 2,
      "has_shelter": false,
      "area": "Pasadena"
    },
    {
      "lat": 34.19605263157895,
      "lon": -118.13157894736841,
      "service_count": 1,
      "has_shelter": true,
      "area": "Pasadena"
    },
    {
      "lat": 34.19605263157895,
      "lon": -118.09894736842105,
      "service_count": 0,
      "has_shelter": false,
      "area": "Other LA County"
    },
    {
      "lat": 34.19605263157895,
      "lon": -118.06631578947369,
      "service_count": 0,
      "has_shelter": false,
      "area": "Other LA County"
    },
    {
      "lat": 34.23026315789474,
      "lon": -118.65368421052631,
      "service_count": 0,
      "has_shelter": false,
      "area": "Other LA County"
    },
    {
      "lat": 34.23026315789474,
      "lon": -118.62105263157895,
      "service_count": 0,
      "has_shelter": false,
      "area": "Other LA County"
    },
    {
      "lat": 34.23026315789474,
      "lon": -118.58842105263159,
      "service_count": 0,
      "has_shelter": false,
      "area": "Other LA County"
    },
    {
      "lat": 34.23026315789474,
      "lon": -118.5557894736842,
      "service_count": 1,
      "has_shelter": false,
      "area": "Other LA County"
    },
    {
      "lat": 34.23026315789474,
      "lon": -118.52315789473684,
      "service_count": 1,
      "has_shelter": false,
      "area": "Other LA County"
    },
    {
      "lat": 34.23026315789474,
      "lon": -118.49052631578948,
      "service_count": 0,
      "has_shelter": false,
      "area": "Other LA County"
    },
    {
      "lat": 34.23026315789474,
      "lon": -118.4578947368421,
      "service_count": 3,
      "has_shelter": false,
      "area": "Other LA County"
    },
    {
      "lat": 34.23026315789474,
      "lon": -118.42526315789473,
      "service_count": 3,
      "has_shelter": true,
      "area": "Other LA County"
    },
    {
      "lat": 34.23026315789474,
      "lon": -118.39263157894737,
      "service_count": 0,
      "has_shelter": false,
      "area": "Other LA County"
    },
    {
      "lat": 34.23026315789474,
      "lon": -118.36,
      "service_count": 0,
      "has_shelter": false,
      "area": "Other LA County"
    },
    {
      "lat": 34.23026315789474,
      "lon": -118.32736842105263,
      "service_count": 0,
      "has_shelter": false,
      "area": "Other LA County"
    },
    {
      "lat": 34.23026315789474,
      "lon": -118.29473684210527,
      "service_count": 0,
      "has_shelter": false,
      "area": "Other LA County"
    },
    {
      "lat": 34.23026315789474,
      "lon": -118.26210526315789,
      "service_count": 0,
      "has_shelter": false,
      "area": "Other LA County"
    },
    {
      "lat": 34.23026315789474,
      "lon": -118.22947368421052,
      "service_count": 0,
      "has_shelter": false,
      "area": "Other LA County"
    },
    {
      "lat": 34.23026315789474,
      "lon": -118.19684210526316,
      "service_count": 0,
      "has_shelter": false,
      "area": "Pasadena"
    },
    {
      "lat": 34.23026315789474,
      "lon": -118.1642105263158,
      "service_count": 0,
      "has_shelter": false,
      "area": "Pasadena"
    },
    {
      "lat": 34.23026315789474,
      "lon": -118.13157894736841,
      "service_count": 0,
      "has_shelter": false,
      "area": "Pasadena"
    },
    {
      "lat": 34.23026315789474,
      "lon": -118.09894736842105,
      "service_count": 0,
      "has_shelter": false,
      "area": "Other LA County"
    },
    {
      "lat": 34.23026315789474,
      "lon": -118.06631578947369,
      "service_count": 0,
      "has_shelter": false,
      "area": "Other LA County"
    },
    {
      "lat": 34.26447368421053,
      "lon": -118.65368421052631,
      "service_count": 0,
      "has_shelter": false,
      "area": "Other LA County"
    },
    {
      "lat": 34.26447368421053,
      "lon": -118.62105263157895,
      "service_count": 0,
      "has_shelter": false,
      "area": "Other LA County"
    },
    {
      "lat": 34.26447368421053,
      "lon": -118.58842105263159,
      "service_count": 1,
      "has_shelter": false,
      "area": "Other LA County"
    },
    {
      "lat": 34.26447368421053,
      "lon": -118.5557894736842,
      "service_count": 0,
      "has_shelter": false,
      "area": "Other LA County"
    },
    {
      "lat": 34.26447368421053,
      "lon": -118.52315789473684,
      "service_count": 0,
      "has_shelter": false,
      "area": "Other LA County"
    },
    {
      "lat": 34.26447368421053,
      "lon": -118.49052631578948,
      "service_count": 1,
      "has_shelter": false,
      "area": "Other LA County"
    },
    {
      "lat": 34.26447368421053,
      "lon": -118.4578947368421,
      "service_count": 0,
      "has_shelter": false,
      "area": "Other LA County"
    },
    {
      "lat": 34.26447368421053,
      "lon": -118.42526315789473,
      "service_count": 0,
      "has_shelter": false,
      "area": "Other LA County"
    },
    {
      "lat": 34.26447368421053,
      "lon": -118.39263157894737,
      "service_count": 1,
      "has_shelter": false,
      "area": "Other LA County"
    },
    {
      "lat": 34.26447368421053,
      "lon": -118.36,
      "service_count": 0,
      "has_shelter": false,
      "area": "Other LA County"
    },
    {
      "lat": 34.26447368421053,
      "lon": -118.32736842105263,
      "service_count": 3,
      "has_shelter": false,
      "area": "Other LA County"
    },
    {
      "lat": 34.26447368421053,
      "lon": -118.29473684210527,
      "service_count": 0,
      "has_shelter": false,
      "area": "Other LA County"
    },
    {
      "lat": 34.26447368421053,
      "lon": -118.26210526315789,
      "service_count": 0,
      "has_shelter": false,
      "area": "Other LA County"
    },
    {
      "lat": 34.26447368421053,
      "lon": -118.22947368421052,
      "service_count": 0,
      "has_shelter": false,
      "area": "Other LA County"
    },
    {
      "lat": 34.26447368421053,
      "lon": -118.19684210526316,
      "service_count": 0,
      "has_shelter": false,
      "area": "Pasadena"
    },
    {
      "lat": 34.26447368421053,
      "lon": -118.1642105263158,
      "service_count": 0,
      "has_shelter": false,
      "area": "Pasadena"
    },
    {
      "lat": 34.26447368421053,
      "lon": -118.13157894736841,
      "service_count": 0,
      "has_shelter": false,
      "area": "Pasadena"
    },
    {
      "lat": 34.26447368421053,
      "lon": -118.09894736842105,
      "service_count": 0,
      "has_shelter": false,
      "area": "Other LA County"
    },
    {
      "lat": 34.26447368421053,
      "lon": -118.06631578947369,
      "service_count": 0,
      "has_shelter": false,
      "area": "Other LA County"
    },
    {
      "lat": 34.29868421052632,
      "lon": -118.65368421052631,
      "service_count": 0,
      "has_shelter": false,
      "area": "Other LA County"
    },
    {
      "lat": 34.29868421052632,
      "lon": -118.62105263157895,
      "service_count": 0,
      "has_shelter": false,
      "area": "Other LA County"
    },
    {
      "lat": 34.29868421052632,
      "lon": -118.58842105263159,
      "service_count": 0,
      "has_shelter": false,
      "area": "Other LA County"
    },
    {
      "lat": 34.29868421052632,
      "lon": -118.5557894736842,
      "service_count": 0,
      "has_shelter": false,
      "area": "Other LA County"
    },
    {
      "lat": 34.29868421052632,
      "lon": -118.52315789473684,
      "service_count": 0,
      "has_shelter": false,
      "area": "Other LA County"
    },
    {
      "lat": 34.29868421052632,
      "lon": -118.49052631578948,
      "service_count": 0,
      "has_shelter": false,
      "area": "Other LA County"
    },
    {
      "lat": 34.29868421052632,
      "lon": -118.4578947368421,
      "service_count": 0,
      "has_shelter": false,
      "area": "Other LA County"
    },
    {
      "lat": 34.29868421052632,
      "lon": -118.42526315789473,
      "service_count": 4,
      "has_shelter": false,
      "area": "Other LA County"
    },
    {
      "lat": 34.29868421052632,
      "lon": -118.39263157894737,
      "service_count": 0,
      "has_shelter": false,
      "area": "Other LA County"
    },
    {
      "lat": 34.29868421052632,
      "lon": -118.36,
      "service_count": 0,
      "has_shelter": false,
      "area": "Other LA County"
    },
    {
      "lat": 34.29868421052632,
      "lon": -118.32736842105263,
      "service_count": 0,
      "has_shelter": false,
      "area": "Other LA County"
    },
    {
      "lat": 34.29868421052632,
      "lon": -118.29473684210527,
      "service_count": 0,
      "has_shelter": false,
      "area": "Other LA County"
    },
    {
      "lat": 34.29868421052632,
      "lon": -118.26210526315789,
      "service_count": 0,
      "has_shelter": false,
      "area": "Other LA County"
    },
    {
      "lat": 34.29868421052632,
      "lon": -118.22947368421052,
      "service_count": 0,
      "has_shelter": false,
      "area": "Other LA County"
    },
    {
      "lat": 34.29868421052632,
      "lon": -118.19684210526316,
      "service_count": 0,
      "has_shelter": false,
      "area": "Pasadena"
    },
    {
      "lat": 34.29868421052632,
      "lon": -118.1642105263158,
      "service_count": 0,
      "has_shelter": false,
      "area": "Pasadena"
    },
    {
      "lat": 34.29868421052632,
      "lon": -118.13157894736841,
      "service_count": 0,
      "has_shelter": false,
      "area": "Pasadena"
    },
    {
      "lat": 34.29868421052632,
      "lon": -118.09894736842105,
      "service_count": 0,
      "has_shelter": false,
      "area": "Other LA County"
    },
    {
      "lat": 34.29868421052632,
      "lon": -118.06631578947369,
      "service_count": 0,
      "has_shelter": false,
      "area": "Other LA County"
    },
    {
      "lat": 34.33289473684211,
      "lon": -118.65368421052631,
      "service_count": 0,
      "has_shelter": false,
      "area": "Other LA County"
    },
    {
      "lat": 34.33289473684211,
      "lon": -118.62105263157895,
      "service_count": 0,
      "has_shelter": false,
      "area": "Other LA County"
    },
    {
      "lat": 34.33289473684211,
      "lon": -118.58842105263159,
      "service_count": 0,
      "has_shelter": false,
      "area": "Other LA County"
    },
    {
      "lat": 34.33289473684211,
      "lon": -118.5557894736842,
      "service_count": 0,
      "has_shelter": false,
      "area": "Other LA County"
    },
    {
      "lat": 34.33289473684211,
      "lon": -118.52315789473684,
      "service_count": 1,
      "has_shelter": true,
      "area": "Other LA County"
    },
    {
      "lat": 34.33289473684211,
      "lon": -118.49052631578948,
      "service_count": 0,
      "has_shelter": false,
      "area": "Other LA County"
    },
    {
      "lat": 34.33289473684211,
      "lon": -118.4578947368421,
      "service_count": 0,
      "has_shelter": false,
      "area": "Other LA County"
    },
    {
      "lat": 34.33289473684211,
      "lon": -118.42526315789473,
      "service_count": 0,
      "has_shelter": false,
      "area": "Other LA County"
    },
    {
      "lat": 34.33289473684211,
      "lon": -118.39263157894737,
      "service_count": 0,
      "has_shelter": false,
      "area": "Other LA County"
    },
    {
      "lat": 34.33289473684211,
      "lon": -118.36,
      "service_count": 0,
      "has_shelter": false,
      "area": "Other LA County"
    },
    {
      "lat": 34.33289473684211,
      "lon": -118.32736842105263,
      "service_count": 0,
      "has_shelter": false,
      "area": "Other LA County"
    },
    {
      "lat": 34.33289473684211,
      "lon": -118.29473684210527,
      "service_count": 0,
      "has_shelter": false,
      "area": "Other LA County"
    },
    {
      "lat": 34.33289473684211,
      "lon": -118.26210526315789,
      "service_count": 0,
      "has_shelter": false,
      "area": "Other LA County"
    },
    {
      "lat": 34.33289473684211,
      "lon": -118.22947368421052,
      "service_count": 0,
      "has_shelter": false,
      "area": "Other LA County"
    },
    {
      "lat": 34.33289473684211,
      "lon": -118.19684210526316,
      "service_count": 0,
      "has_shelter": false,
      "area": "Pasadena"
    },
    {
      "lat": 34.33289473684211,
      "lon": -118.1642105263158,
      "service_count": 0,
      "has_shelter": false,
      "area": "Pasadena"
    },
    {
      "lat": 34.33289473684211,
      "lon": -118.13157894736841,
      "service_count": 0,
      "has_shelter": false,
      "area": "Pasadena"
    },
    {
      "lat": 34.33289473684211,
      "lon": -118.09894736842105,
      "service_count": 0,
      "has_shelter": false,
      "area": "Other LA County"
    },
    {
      "lat": 34.33289473684211,
      "lon": -118.06631578947369,
      "service_count": 0,
      "has_shelter": false,
      "area": "Other LA County"
    }
  ],
  "homeless_trends": [
    {
      "year": 2015,
      "homeless_count": 44359,
      "sheltered": 12104,
      "unsheltered": 32255,
      "total_beds": 15200,
      "beds_per_100_homeless": 34.265876146892396,
      "shelter_rate": 27.286458215920106
    },
    {
      "year": 2016,
      "homeless_count": 46874,
      "sheltered": 13059,
      "unsheltered": 33815,
      "total_beds": 15800,
      "beds_per_100_homeless": 33.70738575756283,
      "shelter_rate": 27.859794342279304
    },
    {
      "year": 2017,
      "homeless_count": 55188,
      "sheltered": 14527,
      "unsheltered": 40661,
      "total_beds": 16500,
      "beds_per_100_homeless": 29.89780387040661,
      "shelter_rate": 26.322751322751326
    },
    {
      "year": 2018,
      "homeless_count": 52765,
      "sheltered": 15132,
      "unsheltered": 39633,
      "total_beds": 17200,
      "beds_per_100_homeless": 32.59736567800625,
      "shelter_rate": 28.678101013929684
    },
    {
      "year": 2019,
      "homeless_count": 58936,
      "sheltered": 16519,
      "unsheltered": 42417,
      "total_beds": 18500,
      "beds_per_100_homeless": 31.389982353739647,
      "shelter_rate": 28.02870910818515
    },
    {
      "year": 2020,
      "homeless_count": 66436,
      "sheltered": 18944,
      "unsheltered": 47492,
      "total_beds": 21000,
      "beds_per_100_homeless": 31.60936841471491,
      "shelter_rate": 28.51466072611235
    },
    {
      "year": 2022,
      "homeless_count": 69144,
      "sheltered": 20124,
      "unsheltered": 49020,
      "total_beds": 22800,
      "beds_per_100_homeless": 32.97466157584172,
      "shelter_rate": 29.1044776119403
    },
    {
      "year": 2023,
      "homeless_count": 75518,
      "sheltered": 21631,
      "unsheltered": 53887,
      "total_beds": 24200,
      "beds_per_100_homeless": 32.04534018379724,
      "shelter_rate": 28.64350221139331
    },
    {
      "year": 2024,
      "homeless_count": 75312,
      "sheltered": 21789,
      "unsheltered": 53523,
      "total_beds": 24800,
      "beds_per_100_homeless": 32.929679201189714,
      "shelter_rate": 28.931644359464627
    },
    {
      "year": 2025,
      "homeless_count": 78000,
      "sheltered": 22500,
      "unsheltered": 55500,
      "total_beds": 25500,
      "beds_per_100_homeless": 32.69230769230769,
      "shelter_rate": 28.846153846153843
    }
  ],
  "gap_analysis": {
    "homeless_growth_pct": 75.8380486485268,
    "shelter_capacity_growth_pct": 67.76315789473684,
    "beds_per_100_then": 34.265876146892396,
    "beds_per_100_now": 32.69230769230769,
    "shelter_rate_then": 27.286458215920106,
    "shelter_rate_now": 28.846153846153843,
    "gap_widening": true
  },
  "forecast_2027": {
    "year": 2027,
    "homeless_count_projected": 80592,
    "beds_needed_to_maintain_current_ratio": 26347,
    "additional_beds_needed": 847.0
  },
  "summary": {
    "total_current_services": 20,
    "total_facilities_2015": 155,
    "new_facilities_since_2015": 104,
    "current_homeless_count": 78000,
    "current_shelter_capacity": 25500,
    "service_gap_areas": 262
  }
}